[{"name": "Sebastian", "lat": 51.50488514284093, "lng": -0.08342742919921876, "image": ""}, {"name": "Sebastian", "lat": 51.49355448387187, "lng": -0.08943557739257814, "image": ""}, {"name": "wednesday", "lat": 51.503709450730845, "lng": -0.10179519653320314, "image": ""}, {"name": "ysrdgasef", "lat": 51.51792260336138, "lng": -0.1309776306152344, "image": ""}, {"name": "asrfasrg", "lat": 51.527538010743186, "lng": -0.06334304809570314, "image": ""}, {"name": "sfrasef", "lat": 51.503068151339974, "lng": -0.2037620544433594, "image": ""}, {"name": "asrfqawe4r", "lat": 51.52379892690494, "lng": -0.16839981079101565, "image": ""}, {"name": "esrgweartgqe4t", "lat": 51.53031541711809, "lng": -0.03072738647460938, "image": ""}, {"name": "asefasef", "lat": 51.50253372828684, "lng": -0.14041900634765628, "image": "https://plus.unsplash.com/premium_photo-1673718697568-f8cfc51ff93e?q=80&w=1632&auto=format&fit=crop&ixlib=rb-4.0.3&ixid=M3wxMjA3fDB8MHxwaG90by1wYWdlfHx8fGVufDB8fHx8fA%3D%3D"}, {"name": "wednesday", "lat": 55.52500980902196, "lng": 37.52929687500001, "image": ""}, {"name": "wednesday", "lat": 51.008418922747495, "lng": 23.73046875, "image": ""}, {"name": "Sebastian", "lat": 59.7542714440199, "lng": 12.216796875000002, "image": ""}, {"name": "wednesday", "lat": 50.283719325109146, "lng": 8.789062500000002, "image": ""}, {"name": "Product Discovery Done", "lat": 52.31708252036853, "lng": 31.289062500000004, "image": ""}, {"name": "wednesday", "lat": 51.284177719652114, "lng": 35.24414062500001, "image": ""}, {"name": "sefsefwefr", "lat": 54.92329889521684, "lng": -18.808593750000004, "image": ""}]